,City,Latitude,Longitude,Temperature (C),Cloud Cover,Humidity,Wind Speed (MPH),Country
0,Sedalia,38.70446,-93.228256,24.78,1,31,8.2,US
1,Jiangjin,29.29056,106.254173,22.0,0,68,3.0,CN
2,Chemmumiahpet,15.89794,79.321289,22.13,0,88,1.41,IN
3,Droichead Nua,53.181938,-6.79667,7.0,90,100,3.6,IE
4,Supaul,26.116671,86.599998,21.68,20,81,3.41,IN
5,North Shore,-31.40237,152.901855,14.0,0,100,5.21,AU
6,Jacksonville,34.754051,-77.430237,16.36,1,44,3.1,US
7,Jagdispur,25.48333,84.416672,23.0,40,83,1.06,IN
8,Sinnar,19.85,74.0,16.23,0,98,1.61,IN
9,Bongaigaon,26.47822,90.556763,17.08,92,96,2.16,IN
10,Cabaiguan,22.07889,-79.499168,31.0,75,45,6.7,CU
11,Lagoa Vermelha,-28.208611,-51.525829,25.88,0,54,2.16,BR
12,Shiogama,38.316669,141.033325,8.0,40,42,1.0,JP
13,Ginosa,40.58012,16.75609,15.0,0,77,1.5,IT
14,Yenakiyeve,48.233311,38.211369,13.23,8,59,3.71,UA
15,Beijing,39.907501,116.397232,12.0,0,30,3.0,CN
16,Hagere Maryam,5.63333,38.23333,15.38,92,98,0.86,ET
17,Vadodara,22.299999,73.199997,24.13,0,93,2.81,IN
18,Mafinga,-7.25,35.066669,17.78,56,95,2.31,TZ
19,Khash,28.221069,61.21582,8.73,0,33,1.31,IR
20,El Cajon,32.794769,-116.962532,20.91,5,41,5.1,US
21,Jatoba,-9.18306,-38.26889,28.23,92,54,5.26,BR
22,Kabin Buri,13.95114,101.71769,23.98,8,94,1.81,TH
23,Cauquenes,-35.967098,-72.322479,12.88,0,82,3.86,CL
24,Tailai,46.383331,123.400002,4.48,92,73,7.56,CN
25,Ahmadnagar,19.08333,74.73333,17.88,0,78,1.81,IN
26,Metapan,14.33333,-89.449997,28.0,40,54,1.86,SV
27,Nokha,27.6,73.416672,22.53,0,62,3.91,IN
28,Obrenovac,44.654861,20.200171,13.46,0,62,1.5,RS
29,Hua Hin,12.57065,99.958763,28.68,8,100,4.51,TH
30,Oelde,51.816669,8.15,11.0,0,93,2.1,DE
31,Lakewood,41.481991,-81.798187,12.76,90,47,5.1,US
32,Tokuyama,34.049999,131.816666,6.18,8,87,1.51,JP
33,Daud Khel,32.874981,71.570122,9.93,0,93,1.11,PK
34,Tienen,50.807442,4.9378,9.2,80,93,1.5,BE
35,Fortaleza,-3.71722,-38.54306,27.0,75,78,2.1,BR
36,Bochum,51.48333,7.21667,8.97,8,87,2.1,DE
37,Gowurdak,37.812439,66.046562,5.63,0,60,1.36,AF
38,Kalyan,19.25,73.150002,28.0,20,74,1.06,IN
39,Orland Park,41.63031,-87.853943,18.24,40,37,3.6,US
40,Bidar,17.9,77.550003,20.73,24,75,1.36,IN
41,Kushchevskaya,46.556389,39.638611,12.88,0,61,3.91,RU
42,Lishu,43.304722,124.327782,2.83,0,50,5.66,CN
43,Ghazipur,25.58333,83.566673,24.23,8,60,1.16,IN
44,El Bauga,18.261959,33.908119,24.78,0,16,5.01,SD
45,Owosso,42.997799,-84.176643,12.61,40,35,5.1,US
46,Mansalay,12.52044,121.438507,23.03,44,95,1.21,PH
47,Chuhar Kana,31.75,73.800003,22.0,40,64,3.1,PK
48,Abovyan,40.26741,44.62656,11.0,8,62,2.1,AM
49,Catu,-12.35306,-38.378891,27.0,75,78,4.6,BR
50,Songling,31.1933,120.717583,17.0,0,51,5.0,CN
51,Minusinsk,53.710281,91.6875,-1.0,0,80,3.0,RU
52,Mount Vernon,48.421219,-122.334053,11.24,1,58,5.1,US
53,Cholet,47.066669,-0.88333,11.0,64,87,1.5,FR
54,Dijkot,31.216669,72.98333,18.38,0,93,3.56,PK
55,Babruysk,53.150002,29.233334,6.83,0,62,7.06,BY
56,Valkeakoski,61.26421,24.031219,-3.0,0,86,1.11,FI
57,Monreale,38.080051,13.28854,16.0,0,87,3.1,IT
58,Tetovo,42.010559,20.97139,11.0,0,76,2.1,MK
59,Kampong Spoe,11.45,104.533333,27.08,92,72,2.51,KH
60,Nueve de Julio,-35.44437,-60.883129,22.03,8,96,2.21,AR
61,Minchinabad,30.163,73.568542,20.58,0,81,3.06,PK
62,Jaguariuna,-22.705561,-46.985828,27.0,0,42,4.1,BR
63,Rawicz,51.609459,16.858521,12.0,0,66,2.6,PL
64,Phalia,32.429729,73.577454,17.28,92,92,3.31,PK
65,Zunheboto,25.966669,94.51667,15.08,64,85,0.41,IN
66,Conceicao do Jacuipe,-12.31667,-38.76667,24.23,80,83,3.46,BR
67,Trikala,39.555279,21.7675,8.18,0,86,0.86,GR
68,Finote Selam,10.7,37.26667,11.38,56,63,1.31,ET
69,Shelby,35.292351,-81.535652,19.11,1,43,3.1,US
70,Bregenz,47.503109,9.7471,10.84,0,62,2.1,AT
71,Chatra,24.216669,84.866669,23.0,20,69,4.1,IN
72,Rengo,-34.416672,-70.866669,11.0,90,100,5.7,CL
73,Dera Ghazi Khan,30.056141,70.634773,21.18,0,62,5.46,PK
74,Tarime,-1.35,34.366669,19.08,48,100,0.51,TZ
75,Dongfeng,42.640308,125.511757,0.18,0,63,5.51,CN
76,Gap,44.566669,6.08333,3.98,92,100,1.66,FR
77,Pristina,42.672722,21.16688,11.0,0,71,1.0,RS
78,Sayanogorsk,53.087502,91.399719,-2.73,76,72,1.66,RU
79,Mirnyy,62.764091,40.33746,-1.23,32,79,3.21,RU
80,Vlissingen,51.442501,3.57361,10.2,90,87,1.5,NL
81,Zhoucheng,35.91222,116.311668,15.23,92,48,3.41,CN
82,Peddapalli,18.616671,79.366669,24.98,0,53,3.76,IN
83,Ciudad Real,38.98333,-3.93333,6.33,36,83,5.81,ES
84,Valenciennes,50.349998,3.53333,9.52,8,93,2.6,FR
85,San Onofre,9.73586,-75.52626,28.18,24,89,2.56,CO
86,Bouar,5.93404,15.59599,20.18,8,83,1.26,CF
87,Seremban,2.7297,101.938103,26.63,75,83,0.96,MY
88,Kizilcahamam,40.469719,32.650558,11.0,75,76,1.0,TR
89,Khowai,24.1,91.633331,22.18,36,88,1.61,IN
90,Port-au-Prince,18.539169,-72.334999,28.98,48,67,2.56,HT
91,Mbake,14.79032,-15.90803,32.0,0,31,2.1,SN
92,Hodal,27.9,77.366669,20.83,56,81,5.21,IN
93,Rheinfelden (Baden),47.566669,7.8,12.98,0,58,2.6,DE
94,Nyaunglebin,17.950001,96.73333,26.53,20,65,0.61,MM
95,Mamfe,5.754,9.3123,19.48,0,91,0.91,NG
96,Vikhorevka,56.120098,101.163597,-1.0,20,68,2.0,RU
97,Richmond,37.74786,-84.294647,17.59,1,36,4.1,US
98,Plottier,-38.966671,-68.23333,15.88,8,21,10.06,AR
99,Forest Hills,42.959469,-85.489754,10.76,1,37,5.7,US
100,Wayne,40.925381,-74.276543,9.46,20,29,3.6,US
101,Pace,30.59936,-87.161079,24.19,1,38,4.6,US
102,Celso Ramos,-27.634439,-51.336391,26.38,0,62,1.46,BR
103,Gijon,43.535728,-5.66152,10.0,75,87,3.1,ES
104,Drobeta-Turnu Severin,44.631939,22.656111,15.03,0,78,1.06,RO
105,Kharagpur,22.33333,87.333328,24.93,32,90,3.06,IN
106,Mangaratiba,-22.959721,-44.040562,26.43,20,69,5.1,BR
107,Hereford,34.81506,-102.397697,33.0,1,8,9.3,US
108,Ashqelon,31.66926,34.571491,16.0,20,82,1.5,IL
109,Papa,47.33004,17.4674,12.79,0,51,2.1,HU
110,Yelan,50.949001,43.737808,7.38,36,77,7.26,RU
111,Nitra,48.307629,18.08453,11.07,0,71,1.0,SK
112,Ebolowa,2.9,11.15,19.88,12,96,0.86,CM
113,Karaj,35.835499,51.0103,17.48,40,22,4.1,IR
114,Waukegan,42.363628,-87.844788,12.92,1,61,5.1,US
115,Someshwar,13.5,75.066673,26.0,20,69,1.5,IN
116,Orland Park,41.63031,-87.853943,18.24,40,37,3.6,US
117,Montreuil,48.864151,2.44322,12.83,0,62,2.6,FR
118,Anakapalle,17.683331,83.01667,25.18,48,100,3.11,IN
119,Akaltara,22.01667,82.433327,21.58,56,78,1.96,IN
120,Changling,44.26532,124.00045,2.43,0,60,4.31,CN
121,Mubende,0.56055,31.389999,15.88,68,95,1.16,UG
122,Hajipur,25.683331,85.216667,23.0,40,83,2.36,IN
123,Chelghoum el Aid,36.162861,6.16651,10.84,40,50,5.1,DZ
124,Lelydorp,5.7,-55.23333,27.68,56,92,7.41,SR
125,Jinan,36.668331,116.997223,14.18,92,49,1.91,CN
126,Chimichagua,9.25778,-73.812279,27.93,44,79,1.06,CO
127,Pagaralam,-4.01667,103.26667,20.73,68,92,0.71,ID
128,Groznyy,43.308331,45.700279,9.73,32,80,0.91,RU
129,Boulder,40.014992,-105.270554,24.9,1,9,9.8,US
130,Pruszkow,52.170719,20.81214,11.0,0,76,5.1,PL
131,Wuyang,31.9925,116.247223,18.38,92,93,6.91,CN
132,Akbarabad,29.246401,52.779301,13.0,90,87,2.1,IR
133,Maihar,24.26667,80.75,19.53,44,78,1.01,IN
134,Prince Albert,53.200081,-105.767723,-1.0,90,54,2.1,CA
135,Guntur,16.299999,80.449997,22.53,0,92,2.01,IN
136,Minas,21.48333,-77.616669,23.0,75,73,6.7,CU
137,Bajil,15.05835,43.285061,24.18,0,87,1.06,YE
138,Umm Qasr,30.040541,47.916771,23.53,0,73,4.1,IR
139,Butare,-2.59667,29.739441,15.73,76,96,1.16,RW
140,Atrauli,28.033331,78.283333,21.38,48,85,5.06,IN
141,Peekskill,41.290089,-73.920418,9.17,75,39,4.1,US
142,Atlacomulco,19.798889,-99.874443,19.0,75,45,7.2,MX
143,Susangerd,31.560801,48.183102,24.0,75,47,5.1,IR
144,Emsdetten,52.183331,7.53333,9.54,0,81,2.6,DE
145,Dibai,28.216667,78.25,21.38,48,85,5.06,IN
146,Memmingen,47.983719,10.18527,12.6,0,62,2.1,DE
147,Beypazari,40.1675,31.92111,11.13,56,89,1.16,TR
148,Tuban,-6.8976,112.064903,27.98,48,100,5.11,ID
149,Rath,25.58333,79.566673,21.13,88,82,2.96,IN
150,Saintes,45.75,-0.63333,11.65,0,81,4.6,FR
151,Ciudad Hidalgo,19.683331,-100.566673,24.0,75,33,5.7,MX
152,North Shore,-31.40237,152.901855,14.0,0,100,5.21,AU
153,Bountiful,40.889389,-111.880768,18.28,1,36,6.2,US
154,Al Mukalla,14.54248,49.124241,25.73,80,100,2.96,SO
155,Dorohoi,47.950001,26.4,14.0,0,62,1.31,RO
156,Barrie,44.400108,-79.666344,3.68,90,98,3.6,CA
157,Skikda,36.876171,6.90921,11.28,8,73,0.61,DZ
158,Llanelli,51.68195,-4.16191,8.31,44,87,1.0,GB
159,Tupa,-21.934719,-50.513611,29.23,8,40,2.91,BR
160,Gent,51.049999,3.71667,10.22,0,93,2.6,BE
161,Aranjuez,40.031078,-3.60246,10.43,75,57,6.7,ES
162,Rock Hill,34.92487,-81.025078,18.34,1,39,2.6,US
163,Fukuoka-shi,33.606392,130.41806,12.66,40,76,3.46,JP
164,Basirpur,30.583179,73.829002,18.88,0,88,3.21,PK
165,Alba Iulia,46.066669,23.58333,12.0,0,76,2.1,RO
166,Tunduma,-9.3,32.76667,17.43,24,93,2.36,TZ
167,Wardenburg,53.066669,8.2,7.29,75,87,5.1,DE
168,Chodavaram,17.83333,82.949997,19.28,56,92,0.96,IN
169,Skien,59.209621,9.60897,3.0,0,51,3.6,NO
170,San Jose de las Lajas,22.96139,-82.151108,28.0,75,69,6.2,CU
171,Manmad,20.25,74.449997,19.18,0,72,3.46,IN
172,Wakefield,53.683311,-1.49768,5.41,90,100,4.6,GB
173,Tooele,40.530781,-112.298279,19.76,1,36,6.2,US
174,Junagadh,21.51667,70.466667,24.18,0,94,3.26,IN
175,Konigslutter am Elm,52.25,10.81667,8.0,40,93,5.7,DE
176,Rio Guayabal de Yateras,20.366671,-75.01667,26.38,44,68,0.56,CU
177,Kunwi,36.234718,128.572784,7.0,0,56,0.5,KR
178,Khunti,23.08333,85.283333,16.38,8,96,1.11,IN
179,Gameleira,-8.58444,-35.386669,22.88,92,92,2.11,BR
180,Afif,23.9065,42.91724,19.38,0,58,5.81,SA
181,Gilroy,37.005779,-121.568283,17.86,1,52,8.7,US
182,Kannapolis,35.487358,-80.621727,17.8,1,40,2.16,US
183,Groznyy,43.308331,45.700279,9.73,32,80,0.91,RU
184,Osan,37.152222,127.070557,4.74,20,80,1.5,KR
185,Khujayli,42.400429,59.460049,7.0,0,33,3.1,UZ
186,Saint-Jean-sur-Richelieu,45.31678,-73.265862,6.68,75,45,3.6,CA
187,Kulp,38.497219,41.012218,11.0,75,93,0.5,TR
188,Waterloo,42.49276,-92.342957,13.65,75,51,6.7,US
189,Marche-en-Famenne,50.22678,5.34416,8.47,0,87,2.1,BE
190,Plasencia,40.031158,-6.08845,6.53,80,90,2.46,ES
191,Gambaru,12.37066,14.21731,23.73,0,18,3.46,CM
192,Bistrita,47.13316,24.500111,8.18,88,92,0.86,RO
193,Reus,41.15612,1.10687,10.0,40,76,3.1,ES
194,Traralgon,-38.183331,146.533325,17.88,92,77,0.76,AU
195,Harburg,53.466671,9.98333,6.07,12,87,5.7,DE
196,Nay Pyi Taw,19.745001,96.129723,22.73,0,69,0.96,MM
197,San Mariano,7.5,126.0,24.0,40,100,1.5,PH
198,Leeuwarden,53.201389,5.80859,7.26,0,93,6.7,NL
199,Piaseczno,52.081402,21.02397,11.0,0,76,5.1,PL
200,Lipetsk,52.603111,39.570759,0.28,0,89,6.56,RU
201,Enkhuizen,52.703331,5.29167,9.24,92,93,6.7,NL
202,Montlucon,46.333328,2.6,10.68,88,72,3.56,FR
203,Newbury,51.40033,-1.32059,8.38,90,93,4.6,GB
204,Haripur,33.999969,72.93409,16.0,0,82,1.86,PK
205,Goroka,-6.08336,145.387344,14.88,92,100,0.41,PG
206,Christchurch,-43.533329,172.633331,5.0,44,80,2.6,NZ
207,Morristown,36.213982,-83.294891,18.46,1,45,1.5,US
208,Presidencia Roque Saenz Pena,-26.785219,-60.438759,32.48,0,53,7.96,AR
209,Saint-Laurent-du-Maroni,5.5,-54.033329,26.93,92,70,2.26,SR
210,Huber Heights,39.843948,-84.124657,16.71,40,39,9.8,US
211,Lebowakgomo,-24.200001,29.5,16.0,32,72,2.6,ZA
212,Kahului,20.89472,-156.470001,24.61,75,78,10.8,US
213,Bibiani,6.46346,-2.31938,26.08,8,73,4.06,GH
214,Nueva Gerona,21.883329,-82.800003,27.48,44,87,0.96,CU
215,Malangwa,26.856791,85.558113,19.58,44,79,2.11,NP
216,Vyshniy Volochek,57.591251,34.564529,-4.63,0,79,1.31,RU
217,Oume,6.38309,-5.41759,25.18,32,89,2.76,CI
218,Sihora,23.48333,80.116669,27.0,64,39,3.01,IN
219,Kamina,-8.73861,24.990561,21.18,92,97,0.91,CD
220,Moirang,24.5,93.76667,18.23,88,89,0.71,IN
221,Goulburn,-34.75,149.716675,14.28,0,77,2.51,AU
222,Durg,21.183331,81.283333,20.38,32,90,1.41,IN
223,Chintamani,13.4,78.066673,22.0,0,100,2.1,IN
224,Jingmen,31.033609,112.20472,19.18,92,99,1.66,CN
225,Tokmak,47.251389,35.705833,15.58,80,52,1.21,UA
226,Charqueadas,-29.95472,-51.625278,29.5,0,58,3.6,BR
227,Zima,53.9202,102.044197,-3.93,76,89,1.31,RU
228,Zalantun,48.0,122.716667,2.78,80,78,3.76,CN
229,Sint-Gillis-Waas,51.219139,4.12374,10.24,75,100,2.6,BE
230,Burien,47.470379,-122.346786,10.44,90,62,4.1,US
231,Kleve,51.783329,6.15,10.01,8,100,3.56,DE
232,Falticeni,47.450001,26.299999,14.0,0,62,1.36,RO
233,Rosarito,32.333328,-117.033333,21.58,40,72,5.1,MX
234,Dax,43.71032,-1.05366,9.74,100,93,0.5,FR
235,Port Alfred,-33.590569,26.891041,19.18,12,93,6.11,ZA
236,DeSoto,32.589859,-96.856949,26.26,1,30,5.1,US
237,Bhimbar,32.975681,74.079262,19.0,80,88,2.1,PK
238,Belleville,44.178761,-77.370529,4.0,90,86,7.7,CA
239,Onda,39.966671,-0.25,14.0,20,47,8.7,ES
240,Hingoli,19.716669,77.150002,19.48,24,85,1.21,IN
241,Ende,-8.8432,121.6623,27.33,0,100,1.36,ID
242,Cali,3.43722,-76.522499,28.0,75,61,2.6,CO
243,General Escobedo,25.816669,-100.333328,21.04,75,60,5.1,MX
244,Chepo,9.16667,-79.099998,25.43,64,95,3.01,PA
245,Nay Pyi Taw,19.745001,96.129723,22.73,0,69,0.96,MM
246,Bad Oldesloe,53.811668,10.37417,5.52,40,80,4.1,DE
247,Karacabey,40.215248,28.40378,16.58,92,71,2.41,TR
248,Goiana,-7.56056,-35.002499,24.46,75,83,2.6,BR
249,Novorossiysk,44.723888,37.770832,15.0,0,62,7.0,RU
250,Cassilandia,-19.113331,-51.734169,27.93,0,57,3.21,BR
251,Cambridge,52.200001,0.11667,6.96,90,100,3.1,GB
252,Darwin,-12.46113,130.841843,25.0,20,88,1.0,AU
253,Caravaca,38.105579,-1.86342,8.38,0,56,9.16,ES
254,Tokmok,42.841721,75.301582,-7.13,0,76,1.76,KG
255,Antrim,54.700001,-6.2,8.0,90,87,4.1,GB
256,Fairbanks,64.837784,-147.716385,5.0,75,60,1.86,US
257,Masinloc,15.5363,119.950203,22.58,0,100,1.76,PH
258,Lowestoft,52.475201,1.75159,6.69,20,100,4.1,GB
259,Coronel Oviedo,-25.41667,-56.450001,30.38,0,58,2.06,PY
260,Kebomas,-7.16667,112.633301,27.83,64,91,2.91,ID
261,Sangre Grande,10.58333,-61.116669,25.64,40,94,6.7,TT
262,Itimadpur,27.25,78.199997,20.38,56,83,2.71,IN
263,Sarikei,2.11667,111.51667,25.0,75,94,1.0,MY
264,Aristobulo del Valle,-27.096251,-54.896259,28.73,0,51,2.01,PY
265,Santo Estevao,-12.43028,-39.251389,24.23,80,83,3.46,BR
266,Penjamo,20.433331,-101.73333,26.0,40,29,4.1,MX
267,Mezokovesd,47.816669,20.58333,10.68,8,87,1.21,HU
268,Chernyanka,50.940948,37.806931,4.18,32,78,6.91,RU
269,Xintai,35.900558,117.751938,12.18,92,58,1.06,CN
270,Shakhtersk,48.062519,38.516651,13.23,8,59,3.71,UA
271,Niamtougou,9.76806,1.10528,30.0,20,55,4.1,TG
272,Chidambaram,11.4,79.699997,27.48,0,94,2.51,IN
273,Mahendranagar,28.91667,80.333328,18.83,80,82,2.31,NP
274,Richmond,-29.87196,30.27235,11.58,92,94,0.96,ZA
275,Bay City,43.594471,-83.888863,11.34,1,58,3.6,US
276,Podujeva,42.910561,21.19306,11.0,0,71,1.0,RS
277,Maues,-3.38361,-57.718609,28.58,44,77,1.66,BR
278,Tando Adam,25.763741,68.66098,25.0,8,57,0.66,PK
279,Hala,25.81308,68.422729,25.0,8,57,0.66,PK
280,Colwyn Bay,53.29483,-3.72674,8.0,75,87,5.7,GB
281,Saskatoon,52.116791,-106.634521,-2.0,90,92,6.2,CA
282,Campos Novos,-27.40167,-51.224998,24.83,8,59,2.31,BR
283,Erdenet,49.033329,104.083328,-3.18,88,90,1.56,MN
284,Laascaanood,8.47738,47.359711,20.33,8,92,3.01,SO
285,San Miguel el Alto,21.01667,-102.349998,22.68,12,68,1.51,MX
286,Pozega,45.340279,17.68528,10.0,0,87,0.5,HR
287,Santo Angelo,-28.29917,-54.263062,30.28,0,44,3.71,BR
288,Agogo,6.80004,-1.08193,26.88,0,68,4.46,GH
289,Thun,46.751179,7.62166,10.91,0,81,0.5,CH
290,Malang,-7.9797,112.630402,20.58,44,92,0.71,ID
291,Charsadda,34.143452,71.731728,10.43,12,86,0.71,PK
292,Anjangaon,21.163059,77.309441,19.18,24,91,0.76,IN
293,Cam Ranh,11.92144,109.159126,23.18,20,100,1.81,VN
294,Mullheim,47.808201,7.63035,13.0,0,58,2.6,DE
295,Wolomin,52.340061,21.242069,11.0,0,76,5.1,PL
296,Aracatuba,-21.208891,-50.432781,29.33,0,45,2.76,BR
297,Limbang,4.75,115.0,26.64,75,94,1.5,MY
298,Betul,21.915279,77.896111,19.08,44,81,1.36,IN
299,Borivli,19.23333,72.849998,28.0,20,74,1.51,IN
300,Greeley,40.423309,-104.709129,26.32,1,9,9.8,US
301,Yangiyul,41.112019,69.047096,10.0,0,66,3.1,UZ
302,Ellesmere Port,53.278751,-2.90134,6.69,75,93,4.1,GB
303,Hajin,34.692699,40.827,14.58,12,78,3.41,SY
304,Simav,39.0882,28.977671,12.28,92,95,0.76,TR
305,Nileshwar,12.25,75.099998,29.08,48,100,3.56,IN
306,Al Amarah,31.840639,47.139599,19.78,76,75,4.91,IR
307,Wuxi,26.573071,111.841843,20.33,92,97,1.51,CN
308,Kokshetau,53.2775,69.388336,5.73,24,70,8.96,KZ
309,Campina Grande do Sul,-25.305559,-49.055279,19.49,20,77,5.1,BR
310,Dongning,44.062191,131.120743,4.23,48,57,4.36,CN
311,Lao Cai,22.48333,103.949997,17.48,0,82,0.76,VN
312,Korosten,50.95937,28.63855,13.53,68,61,7.51,UA
313,Chaman,30.923599,66.451157,2.93,0,40,1.21,PK
314,Manavgat,36.786671,31.44306,16.0,75,93,0.5,TR
315,Johor Bahru,1.4655,103.757797,26.75,75,88,1.0,MY
316,Ripon,54.135208,-1.52122,5.04,90,100,6.2,GB
317,Lake Charles,30.213091,-93.204399,22.74,1,40,4.6,US
318,Blue Springs,39.016949,-94.281609,24.87,1,31,8.2,US
319,Changyon,38.250832,125.096107,6.38,68,96,3.51,KR
320,Francavilla Fontana,40.530628,17.585211,15.0,0,87,2.6,IT
321,Sorada,19.75,84.433327,21.63,68,88,0.91,IN
322,Riverside,33.95335,-117.396156,26.71,1,21,4.6,US
323,Changsu,35.648418,127.515228,3.63,68,62,0.86,KR
324,Kabwe,-14.4469,28.44644,19.33,36,91,5.21,ZM
325,Novomichurinsk,54.038399,39.747898,-0.68,0,65,5.51,RU
326,Samarra,34.200958,43.875622,17.88,0,64,1.46,IQ
327,Wonosobo,-7.36,109.902496,19.53,12,90,0.81,ID
328,Po,11.16972,-1.145,24.63,68,82,3.11,BF
329,Arroyo Grande,35.118591,-120.590729,20.56,1,63,12.3,US
330,Sirinhaem,-8.59083,-35.116112,24.0,75,88,1.0,BR
331,Malyn,50.772331,29.238331,12.83,68,63,7.46,UA
332,Passi,11.10778,122.641937,22.33,92,98,0.86,PH
333,Shimonoseki,33.950001,130.949997,13.84,0,67,4.1,JP
334,Bocholt,51.833328,6.6,10.3,8,100,3.91,DE
335,Rio Real,-11.48472,-37.932781,25.08,92,78,4.01,BR
336,Kombolcha,11.08155,39.743389,10.63,80,93,1.06,ET
337,Prudnik,50.321239,17.57461,11.63,0,69,2.61,PL
338,Ilawa,53.596008,19.568489,12.98,32,68,6.96,PL
339,Waterlooville,50.880669,-1.0304,8.0,75,93,3.6,GB
340,Gatchina,59.576389,30.12833,-1.0,0,63,1.16,RU
341,Hajdunanas,47.849998,21.433331,15.0,0,58,1.5,HU
342,Warrnambool,-38.383331,142.483337,16.73,100,97,9.31,AU
343,Uyovu,-3.28333,31.525829,16.28,80,94,1.26,TZ
344,San Giovanni Lupatoto,45.38789,11.03799,11.72,75,82,5.7,IT
345,Urus-Martan,43.128609,45.54306,9.73,32,80,0.91,RU
346,Safipur,26.73333,80.349998,21.0,75,88,3.1,IN
347,Aracruz,-19.82028,-40.273331,25.0,75,83,1.5,BR
348,Tel Aviv,32.080879,34.780571,16.0,20,82,1.5,IL
349,Tczew,54.092419,18.77787,8.0,20,87,2.1,PL
350,Villeneuve-sur-Lot,44.408539,0.70415,9.52,0,76,3.1,FR
351,Legaspi,13.13722,123.734444,23.83,76,100,1.21,PH
352,Murcia,37.987041,-1.13004,15.0,0,38,8.2,ES
353,Puttur,12.76667,75.216667,26.0,20,69,1.5,IN
354,Komatsu,36.40263,136.450882,9.0,75,100,1.0,JP
355,Gillette,44.291088,-105.50222,15.0,20,47,9.3,US
356,Villahermosa,17.98333,-92.916672,28.0,90,69,2.1,MX
357,Edmonds,47.81065,-122.377357,11.15,90,61,4.6,US
358,Novoaleksandrovsk,45.494801,41.220749,9.33,0,86,1.41,RU
359,Tacna,-18.00556,-70.248329,22.0,40,64,4.1,PE
360,City of Balikpapan,-1.24204,116.894188,27.48,88,100,4.11,ID
361,Cambridge,-37.87822,175.440201,11.28,0,73,5.81,NZ
362,Otradnyy,53.375961,51.3452,-0.13,88,94,6.01,RU
363,Serrana,-21.21139,-47.595558,28.0,20,39,3.1,BR
364,Stakhanov,48.56818,38.64352,14.93,0,54,5.56,UA
365,Surat,21.16667,72.833328,28.48,0,97,6.51,IN
366,Pinheiral,-22.512779,-44.000561,27.0,20,69,5.1,BR
367,Beberibe,-4.17972,-38.130562,27.0,75,78,2.1,BR
368,Achim,53.01416,9.0263,8.63,75,87,5.1,DE
369,Ibaiti,-23.84861,-50.187778,24.73,0,62,1.36,BR
370,Uruguaiana,-29.754721,-57.088329,31.51,0,62,4.6,BR
371,Jiashan,30.84918,120.925827,17.0,0,51,5.0,CN
372,Hyderabad,25.39242,68.373657,25.68,0,46,4.46,PK
373,Manizales,5.06889,-75.51738,21.27,75,77,1.0,CO
374,Beshariq,40.435829,70.610283,2.78,0,79,1.16,UZ
375,Sokol,59.46167,40.12056,-4.53,36,75,4.56,RU
376,Drama,41.154442,24.139441,12.0,0,87,0.41,GR
377,Cacador,-26.77528,-51.014999,22.48,0,65,2.06,BR
378,Etawah,26.776899,79.023903,23.48,92,63,0.71,IN
379,Brooklyn,40.650101,-73.949577,8.92,90,42,3.1,US
380,Kilju,40.964169,129.327774,6.78,0,78,5.11,CN
381,Banki,20.383329,85.533333,26.0,20,94,2.1,IN
382,Uglich,57.5275,38.331669,-4.98,0,82,1.31,RU
383,Goleniow,53.563919,14.82854,11.0,0,76,2.1,PL
384,Energeticheskiy,43.42778,77.022217,0.0,20,52,1.0,KZ
385,Cypress,29.96911,-95.697166,25.89,1,36,3.6,US
386,Ashland,38.478409,-82.637939,18.52,1,25,5.7,US
387,Kudymkar,59.017288,54.655998,-8.48,0,75,3.11,RU
388,Nicosia,35.166672,33.366669,16.0,40,87,2.1,CY
389,Antibes,43.562408,7.12777,11.95,90,76,7.7,FR
390,Titao,13.76667,-2.06667,30.23,0,22,4.16,BF
391,Paragould,36.058399,-90.49733,20.2,1,40,7.2,US
392,Freiberg,50.916672,13.36667,13.0,0,66,4.1,DE
393,Nouakchott,18.08581,-15.9785,20.53,0,90,9.16,MR
394,Chom Bueng,13.62,99.59169,23.73,0,91,1.21,TH
395,Ruvo di Puglia,41.113628,16.48778,15.0,0,77,1.5,IT
396,Nagappattinam,10.76667,79.833328,27.33,48,84,2.01,IN
397,Koblenz,50.349998,7.6,8.35,0,93,2.1,DE
398,Formosa,-15.53722,-47.334438,20.08,32,89,1.81,BR
399,Toulon,43.116669,5.93333,10.64,64,76,2.6,FR
400,Attleboro,41.944538,-71.285606,6.7,75,56,2.31,US
401,Lubumbashi,-11.66089,27.47938,18.43,48,93,1.86,CD
402,Pokrov,55.919998,39.176945,-3.73,0,78,3.86,RU
403,Saladas,-28.253839,-58.625912,30.83,24,60,6.86,AR
404,Geseke,51.650002,8.51667,10.44,0,93,2.1,DE
405,Harlingen,53.17477,5.42244,7.4,40,87,6.2,NL
406,Santa Fe do Sul,-20.211109,-50.925831,29.73,12,54,2.96,BR
407,Senador Pompeu,-5.58806,-39.37167,21.88,80,97,1.36,BR
408,Davis,38.54491,-121.740517,15.4,75,51,5.1,US
409,Wewak,-3.55342,143.626785,25.08,100,96,1.21,PG
410,Bartlesville,36.747311,-95.98082,26.59,20,21,9.3,US
411,Lewiston,44.100349,-70.214783,6.51,90,45,5.1,US
412,Mabama,-5.13333,32.533329,18.48,12,96,1.16,TZ
413,Arakkonam,13.1,79.666672,29.0,40,83,1.26,IN
414,Springe,52.20845,9.55416,8.76,75,93,6.7,DE
415,Tieli,46.950001,128.050003,0.83,92,98,2.41,CN
416,Balakliya,49.4627,36.859509,5.0,40,80,7.0,UA
417,Cugir,45.833328,23.366671,12.0,0,76,2.1,RO
418,Biel,47.132401,7.24411,10.0,68,50,1.5,CH
419,Dolynska,48.110409,32.764488,15.0,0,58,4.0,UA
420,Sagar,14.16667,75.033333,20.23,0,89,1.16,IN
421,Deoranian,28.633329,79.48333,19.98,44,89,3.56,IN
422,Tucuma,-0.18333,-50.049999,24.68,92,100,2.41,BR
423,Shymkent,42.299999,69.599998,6.0,0,70,2.0,KZ
424,Pereira Barreto,-20.63833,-51.109169,29.73,12,54,2.96,BR
425,Akola,20.73333,77.0,20.48,20,78,0.76,IN
426,Homyel,52.434502,30.975401,7.0,0,70,11.0,BY
427,Canoinhas,-26.177219,-50.389999,22.93,0,71,1.61,BR
428,Kennesaw,34.02343,-84.615494,20.67,1,32,2.66,US
429,Baihe,22.15,107.23333,20.83,0,89,2.61,VN
430,Manghit,42.115559,60.059719,8.67,0,33,3.1,UZ
431,Para de Minas,-19.860279,-44.60833,24.0,0,53,4.1,BR
432,Parla,40.236038,-3.76752,10.43,75,57,6.7,ES
433,Mekhe,15.1097,-16.621799,32.0,8,31,2.1,SN
434,Chibuto,-24.68667,33.53056,24.38,88,63,7.16,MZ
435,Nguru,12.8791,10.4526,25.43,0,17,3.91,NG
436,Teonthar,24.98333,81.650002,23.58,12,62,1.16,IN
437,Durham,35.99403,-78.898621,15.57,20,44,3.1,US
438,Sahiwal,31.974461,72.330872,15.48,32,99,3.66,PK
439,Makhachkala,42.976379,47.502361,9.0,24,93,3.0,RU
440,Amargosa,-13.03028,-39.604721,21.18,92,95,4.11,BR
441,Purna,19.183331,77.050003,19.73,0,84,2.26,IN
442,Tilhar,27.98333,79.73333,21.38,80,88,3.06,IN
443,Hayil,27.521879,41.690731,20.0,0,34,4.1,SA
444,Junagarh,19.866671,82.933327,20.58,68,90,0.96,IN
445,Columbus,39.201439,-85.921379,18.0,5,60,9.3,US
446,Caninde,-4.35889,-39.311668,20.53,92,100,1.51,BR
447,Sargodha,32.083611,72.671112,15.48,32,99,3.66,PK
448,Grays,51.475658,0.32521,8.37,90,93,1.5,GB
449,Bishop Auckland,54.65554,-1.67706,5.0,75,100,3.6,GB
450,Saguenay,48.416752,-71.065727,5.0,90,41,4.1,CA
451,Berkovitsa,43.236111,23.12583,14.0,0,71,3.1,BG
452,Solola,14.76667,-91.183327,32.0,40,52,3.1,GT
453,Shibetsu,43.658989,145.131973,4.23,0,79,7.96,JP
454,Sakrand,26.13839,68.273613,25.0,32,57,1.31,PK
455,Pirai do Sul,-24.52611,-49.948608,22.58,8,60,1.31,BR
456,Antrim,54.700001,-6.2,8.0,90,87,4.1,GB
457,Colachel,8.16667,77.25,27.0,40,83,2.1,IN
458,Gudiyatham,12.95,78.866669,19.58,0,98,0.76,IN
459,Nadi,-17.799999,177.416672,27.0,40,65,5.7,VU
460,Guira de Melena,22.79056,-82.50528,28.0,75,69,6.2,CU
461,Mandapam,9.28333,79.116669,29.38,36,100,3.66,IN
462,Lushnje,40.94194,19.705,12.0,0,87,1.0,AL
463,Chingola,-12.52897,27.88382,18.83,76,91,1.51,ZM
464,Yen Bai,21.700001,104.866669,21.53,88,97,1.06,VN
465,Cali,3.43722,-76.522499,28.0,75,61,2.6,CO
466,Karimnagar,18.433331,79.150002,24.98,0,53,3.76,IN
467,Ad Dilam,23.991461,47.162659,20.0,75,82,14.4,SA
468,Ajaccio,41.927231,8.73462,9.98,20,87,3.1,FR
469,Ajab Shir,37.4776,45.894299,11.0,90,71,3.46,IR
470,Azamgarh,26.059999,83.186111,24.23,8,60,1.16,IN
471,Natal,-5.795,-35.209438,26.0,40,83,3.6,BR
472,Guadalajara,20.66667,-103.333328,30.0,40,15,3.6,MX
473,Subic,14.87999,120.234329,25.88,20,83,4.6,PH
474,Irvine,33.66946,-117.823112,23.41,40,72,2.6,US
475,Tiangua,-3.73222,-40.991669,21.38,92,99,1.21,BR
476,Dijon,47.316669,5.01667,13.0,0,58,3.6,FR
477,Tulua,4.08466,-76.195358,28.0,75,61,2.6,CO
478,Kitaibaraki,36.783329,140.75,14.88,76,97,2.16,JP
479,Madhugiri,13.66056,77.209167,19.68,68,94,1.71,IN
480,Mlada Boleslav,50.41135,14.90318,12.42,0,71,3.6,CZ
481,Ozorkow,51.96336,19.291389,13.0,0,76,6.2,PL
482,Buftea,44.56139,25.948891,13.0,0,71,5.1,RO
483,Vaughan,43.836102,-79.498268,3.82,90,80,5.1,CA
484,Aguadas,5.61161,-75.456238,20.03,75,82,2.1,CO
485,Weleri,-6.9713,110.066597,19.53,12,90,0.81,ID
486,Dongobesh,-4.06667,35.383331,15.63,64,98,0.51,TZ
487,Siedlce,52.167721,22.29006,14.13,80,72,6.26,PL
488,Minokamo,35.481991,137.021667,7.83,32,98,1.16,JP
489,Baranavichy,53.132702,26.013901,10.68,56,73,7.71,BY
490,Iserlohn,51.366669,7.7,9.49,0,87,2.1,DE
491,Douliu,23.70944,120.543327,23.0,75,94,3.1,TW
492,Trzcianka,53.04063,16.45628,15.83,0,70,6.41,PL
493,Lingsugur,16.16667,76.51667,21.58,12,81,1.76,IN
494,Pokhara,28.233334,83.98333,10.38,32,78,0.86,NP
495,Taunton,51.021111,-3.10472,7.8,90,87,3.6,GB
496,El Cerrito,3.68549,-76.313721,28.0,75,61,2.6,CO
497,Cajuru,-21.27528,-47.304169,28.0,20,39,3.1,BR
498,Quito,-0.22985,-78.524948,14.73,92,100,1.21,EC
499,Mamou,10.37546,-12.09148,22.73,12,84,1.21,GN
