,City,Latitude,Longitude,Temperature (C),Cloud Cover,Humidity,Wind Speed (MPH),Country
0,Sefrou,33.83186,-4.828,17.36,75,59,11.8,MA
1,Chandvad,20.33333,74.25,25.21,76,47,0.41,IN
2,Monte Alegre,-2.00778,-54.069172,29.19,80,75,1.46,BR
3,Shamakhi,40.631409,48.641369,0.86,80,98,0.61,AZ
4,Vienna,48.208488,16.37208,-5.95,75,73,6.2,AT
5,Sarwar,26.066669,75.0,19.49,0,69,1.41,IN
6,Fujin,47.259998,132.032227,-9.52,88,81,6.46,CN
7,Etawah,26.776899,79.023903,20.81,20,61,1.31,IN
8,Goianesia,-15.3175,-49.1175,33.19,0,42,3.51,BR
9,Trento,46.067871,11.12108,-6.14,90,85,6.2,IT
10,Grahamstown,-33.304218,26.532761,18.56,92,98,3.66,ZA
11,Summerville,33.018501,-80.175652,23.74,40,50,6.7,US
12,Iguatu,-6.35944,-39.298611,28.39,0,95,1.91,BR
13,Jalna,19.83333,75.883331,20.71,8,57,1.21,IN
14,Damnagar,21.700001,71.51667,24.14,48,52,2.21,IN
15,San Joaquin,10.263,-67.785797,29.0,20,58,1.61,VE
16,Niigata-shi,37.902222,139.023605,1.21,88,88,9.61,JP
17,Chacabuco,-34.64167,-60.473888,31.39,0,48,1.91,AR
18,Bhera,32.483181,72.909698,14.86,44,92,2.11,PK
19,Pau,43.299999,-0.36667,12.94,75,71,3.6,FR
20,Zhongshu,24.51667,103.76667,13.79,0,47,4.56,CN
21,Sylhet,24.896669,91.871674,20.89,24,87,0.96,BD
22,San Luis,-33.29501,-66.335632,29.44,44,39,0.51,AR
23,Mubi,10.26761,13.26436,30.06,32,21,2.51,NG
24,Boone,36.216801,-81.674553,11.42,92,93,0.91,US
25,Vranje,42.551392,21.90028,-2.0,90,63,0.5,RS
26,Calama,-22.466669,-68.933327,22.0,0,13,6.7,CL
27,Bad Langensalza,51.099998,10.65,-6.0,0,53,5.7,DE
28,Mogi das Cruzes,-23.522779,-46.188332,30.0,75,48,1.5,BR
29,Cambridge,-37.87822,175.440201,18.56,80,92,4.96,NZ
30,Lucaya,26.533331,-78.666672,26.0,75,65,1.5,BS
31,Manresa,41.724979,1.82656,13.0,90,87,1.0,ES
32,Bohicon,7.17826,2.0667,31.54,0,48,1.86,BJ
33,Pithapuram,17.116671,82.26667,20.04,0,85,1.01,IN
34,Horlivka,48.346981,38.054192,-6.52,32,86,5.01,UA
35,Piui,-20.465281,-45.958061,28.21,24,75,0.76,BR
36,Jaguaruana,-4.83389,-37.781109,26.44,36,97,3.41,BR
37,Federal Way,47.322319,-122.312622,2.27,75,93,1.51,US
38,Diamantina,-18.249439,-43.600281,26.99,36,80,0.61,BR
39,Varginha,-21.55139,-45.430279,30.39,8,62,2.36,BR
40,Dolores,-33.54417,-58.19722,28.11,20,74,1.96,UY
41,Obera,-27.487061,-55.119942,29.61,64,67,1.31,AR
42,Salima,-13.7804,34.458698,19.69,92,100,1.16,MW
43,Kerpen,50.866669,6.7,-0.15,0,33,5.7,DE
44,Fort Portal,0.66174,30.274799,16.86,68,97,1.01,UG
45,Ciudad Serdan,18.98333,-97.449997,26.06,0,26,0.91,MX
46,Tono,39.316669,141.533325,-1.07,64,61,6.91,JP
47,Kingisepp,59.37331,28.61343,-15.22,0,80,2.51,RU
48,Yebaishou,41.397499,119.640831,-6.67,44,54,4.96,CN
49,Jiashan,30.84918,120.925827,7.0,0,65,5.0,CN
50,Malavalli,12.38333,77.083328,19.59,0,51,3.66,IN
51,Mantampay,8.16667,124.216667,25.44,0,100,2.41,PH
52,Pankshin,9.33333,9.45,28.09,0,28,1.31,NG
53,Abay,49.631111,72.853889,-25.0,0,83,1.0,KZ
54,Cornwall,45.018089,-74.728149,3.48,75,64,1.41,CA
55,Kokhma,56.93486,41.091499,-16.12,44,66,3.46,RU
56,East Grinstead,51.123821,-0.0061,-1.1,75,74,9.3,GB
57,Kamyshin,50.098331,45.416012,-13.82,68,79,6.26,RU
58,Ban Selaphum,16.01667,103.949997,23.61,0,93,1.71,TH
59,Mataro,41.54211,2.4445,13.0,90,87,1.0,ES
60,Zunyi,27.68667,106.907219,9.84,92,87,1.31,CN
61,Taza,34.209999,-4.01,11.19,92,81,5.46,MA
62,Linghai,41.165279,121.366669,-12.79,0,71,3.56,CN
63,Barbacena,-21.22583,-43.773609,26.0,75,65,3.1,BR
64,Sandy Springs,33.924271,-84.37854,19.94,90,87,5.7,US
65,Sayville,40.735931,-73.082062,13.75,90,51,4.6,US
66,Changwon,35.228062,128.681107,3.0,0,47,3.1,JP
67,Newry,54.17841,-6.33739,0.0,75,85,13.4,GB
68,Dulmen,51.833328,7.3,-2.63,0,35,9.3,DE
69,Zimovniki,47.148335,42.463333,-6.27,92,90,3.66,RU
70,Stratford-upon-Avon,52.191662,-1.70734,-3.0,90,86,7.2,GB
71,Vangaindrano,-23.35,47.599998,22.99,92,100,1.21,MG
72,Praia,14.92148,-23.50868,25.0,20,57,4.6,CV
73,Starachowice,51.037399,21.07126,-15.92,12,63,2.41,PL
74,El Obeid,13.18421,30.21669,26.64,0,17,5.11,SD
75,Olongapo,14.82917,120.282784,27.15,20,78,2.6,PH
76,Santa Teresa,10.23409,-66.663078,31.0,20,52,3.6,VE
77,Siyabuswa,-25.11319,29.04454,22.39,0,50,2.41,ZA
78,Great Falls,47.50024,-111.300812,-1.0,75,54,5.7,US
79,Nepalgunj,28.049999,81.616669,17.04,68,76,1.21,NP
80,Ouro Preto do Oeste,-10.74806,-62.215832,33.61,0,56,1.26,BR
81,Karlovac,45.487221,15.54778,-6.5,90,85,1.5,HR
82,Backnang,48.950001,9.43333,-3.0,75,53,4.6,DE
83,Mae Sai,20.433531,99.876167,20.0,0,88,0.81,TH
84,Rovereto,45.889599,11.03868,-4.48,75,92,2.6,IT
85,Promyshlennaya,54.915901,85.638496,-14.0,90,71,6.0,RU
86,Mumbwa,-14.97832,27.06188,19.56,92,99,2.11,ZM
87,Akwatia,6.04024,-0.80876,29.59,8,56,3.66,GH
88,Tabor,49.41441,14.6578,-9.69,68,79,6.01,CZ
89,Tangerang,-6.17806,106.629997,25.0,75,94,1.5,ID
90,Balashov,51.550201,43.166698,-15.44,68,80,5.11,RU
91,Shurugwi,-19.67016,30.00589,19.29,92,96,3.81,ZW
92,Dokuchayevsk,47.74773,37.67384,-6.52,56,86,3.96,UA
93,Isulan,6.62944,124.605003,23.59,44,91,1.06,PH
94,Eindhoven,51.44083,5.47778,-0.38,90,33,9.8,NL
95,Alzenau in Unterfranken,50.083328,9.06667,1.0,0,29,6.7,DE
96,Datteln,51.666672,7.38333,-2.65,0,35,9.3,DE
97,Fairbanks,64.837784,-147.716385,-32.01,1,74,3.11,US
98,Jiaxing,30.752199,120.75,8.0,75,81,6.0,CN
99,Kislovodsk,43.91333,42.720829,0.0,90,93,6.0,RU
100,Theniet el Had,35.871109,2.02806,15.59,76,59,4.81,DZ
101,Jintur,19.616671,76.699997,20.59,8,53,0.96,IN
102,Muhammadabad,26.03306,83.383888,21.44,0,65,1.76,IN
103,Bamor Kalan,24.9,78.150002,18.96,64,68,1.26,IN
104,Carpi,44.782372,10.8777,-2.82,90,92,2.1,IT
105,Gondal,21.966669,70.800003,28.0,0,34,2.1,IN
106,Samalut,28.31214,30.71007,16.49,0,53,1.21,EG
107,Hounde,11.5,-3.51667,35.34,24,25,3.66,BF
108,Itapaci,-14.95083,-49.549438,33.54,0,43,3.56,BR
109,Apiai,-24.509439,-48.842499,29.59,44,59,1.06,BR
110,Azua de Compostela,18.45319,-70.734901,29.0,20,62,7.7,DO
111,Pyongyang,39.033852,125.754318,-12.04,0,60,2.51,CN
112,Monchengladbach,51.200001,6.43333,-0.25,0,36,6.2,DE
113,Batang Berjuntai,3.38333,101.416672,25.0,75,94,1.0,MY
114,Vyshhorod,50.584759,30.489799,-10.66,88,92,5.0,UA
115,Revelganj,25.783331,84.666672,23.0,20,73,2.76,IN
116,Bata,1.86391,9.76582,26.39,80,99,3.16,GQ
117,Munster,52.98333,10.08333,-5.49,40,57,7.7,DE
118,Shantou,23.368139,116.71479,17.0,75,77,5.56,CN
119,Charef,34.620979,2.79503,14.39,0,52,7.26,DZ
120,Nieuwegein,52.029171,5.08056,-2.0,0,45,10.3,NL
121,Panalanoy,11.25111,125.006393,24.49,44,100,2.56,PH
122,New Yekepa,7.57944,-8.53778,29.69,56,65,2.06,LR
123,Palitana,21.51667,71.833328,25.61,12,47,1.91,IN
124,Nkongsamba,4.9547,9.9404,23.14,76,90,1.16,CM
125,Rome,34.257038,-85.164673,15.25,90,100,6.81,US
126,Trabzon,41.005001,39.72694,4.0,75,86,3.6,TR
127,Chikhli,20.35,76.25,22.89,32,39,2.86,IN
128,Qazax,41.09333,45.366112,1.04,88,93,0.86,AZ
129,Rockledge,28.35084,-80.725327,27.0,1,57,5.7,US
130,Kayankulam,9.18333,76.5,29.39,0,99,2.66,IN
131,Kiskunfelegyhaza,46.712132,19.84458,-5.65,90,67,3.1,HU
132,Andria,41.230629,16.290871,9.81,75,87,3.6,IT
133,Junagadh,21.51667,70.466667,25.74,0,28,3.81,IN
134,Kirovsk,67.614754,33.672741,-13.94,48,77,0.86,RU
135,Korsor,55.329929,11.13857,-4.0,68,62,6.2,DK
136,Caycuma,41.426392,32.075562,-3.57,0,100,1.16,TR
137,Annigeri,15.43333,75.433327,18.56,0,41,1.71,IN
138,Tekirova,36.501701,30.527229,14.0,0,35,6.2,TR
139,Springe,52.20845,9.55416,-5.39,0,57,8.7,DE
140,Halden,59.124779,11.38754,-9.0,75,61,5.1,NO
141,Fremont,37.548271,-121.988571,11.1,90,93,8.7,US
142,Snina,48.988571,22.15099,-5.0,40,41,0.96,SK
143,Jaszbereny,47.5,19.91667,-5.66,75,79,5.1,HU
144,Siverek,37.75502,39.316669,8.0,75,100,1.11,TR
145,Penzance,50.11861,-5.53715,-3.47,75,92,8.7,GB
146,Guadalajara,20.66667,-103.333328,21.0,5,28,1.5,MX
147,Aalborg,57.048,9.9187,-3.82,76,61,8.56,DK
148,Barreirinhas,-2.74694,-42.826389,29.96,88,76,3.56,BR
149,Newburn,54.987598,-1.74415,-1.29,75,74,10.8,GB
150,Bhadaur,30.48333,75.316673,14.69,0,78,1.21,IN
151,Davao,7.07306,125.612778,26.0,75,88,1.0,PH
152,Bhimbar,32.975681,74.079262,18.0,40,72,2.1,PK
153,Hofu,34.049999,131.566666,7.47,20,52,5.1,JP
154,Hargeysa,9.56,44.064999,19.21,20,78,2.36,SO
155,Stupino,54.900833,38.070831,-11.0,0,61,4.0,RU
156,Auckland,-36.866669,174.766663,20.0,88,88,3.1,NZ
157,Hinthada,17.633329,95.466667,21.96,44,80,4.16,MM
158,Senden,48.324409,10.04442,-5.41,75,67,5.1,DE
159,Scranton,41.40897,-75.662407,10.0,1,71,3.6,US
160,Rawatsar,29.283331,74.383331,20.84,0,61,3.26,IN
161,Noda,35.941109,139.858063,8.99,0,34,4.1,JP
162,Sivagiri,11.11667,77.800003,22.39,0,46,3.21,IN
163,Komotini,41.12278,25.396391,3.52,20,51,1.61,GR
164,Yangzhou,32.397221,119.435829,2.84,92,100,5.11,CN
165,Tecpan Guatemala,14.76694,-90.994171,20.0,20,64,3.1,GT
166,Veles,41.715561,21.77556,-2.0,90,63,0.5,MK
167,Kotkapura,30.5819,74.832977,16.59,8,75,1.61,IN
168,Al Khawr,25.683889,51.505829,22.0,0,64,7.2,QA
169,Satoraljaujhely,48.400002,21.66667,-5.83,20,57,1.5,HU
170,Cianorte,-23.66333,-52.605,30.0,75,55,2.1,BR
171,Kushk,33.29565,61.952209,9.94,100,96,1.31,AF
172,Ende,-8.8432,121.6623,27.11,36,100,2.11,ID
173,Vejalpur,22.683331,73.566673,23.34,0,49,2.51,IN
174,Changtu,42.778839,124.095451,-21.29,20,58,2.31,CN
175,Ashoknagar,24.566669,77.716667,17.86,0,69,1.21,IN
176,Elektrostal,55.791943,38.442223,-10.66,0,61,4.0,RU
177,Smarhon,54.479061,26.3934,-10.44,92,76,5.36,LT
178,Pattukkottai,10.43333,79.316673,24.39,0,96,3.81,IN
179,Anakapalle,17.683331,83.01667,22.81,0,94,1.86,IN
180,Tehran,35.694389,51.421509,11.92,40,32,3.1,IR
181,Kakonko,-3.28278,30.96417,20.06,80,80,2.46,TZ
182,Matao,-21.603331,-48.365829,34.34,8,50,3.41,BR
183,Massy,48.726921,2.28301,2.0,0,69,8.2,FR
184,Jequitinhonha,-16.433889,-41.00333,33.99,0,34,2.06,BR
185,As Sulayyil,20.46067,45.577919,21.0,75,94,7.7,SA
186,Crateus,-5.17833,-40.677502,26.99,12,90,2.36,BR
187,Trujillo,-8.11599,-79.029984,21.0,75,83,4.6,PE
188,Suluova,40.83128,35.647881,0.0,75,89,6.7,TR
189,Pingxiang,27.616671,113.849998,15.89,100,98,1.16,CN
190,Semenov,56.787491,44.49297,-21.32,24,59,1.06,RU
191,Campeche,19.85,-90.533333,28.0,5,65,5.1,MX
192,Perambalur,11.23333,78.883331,28.0,0,58,2.6,IN
193,Rameswaram,9.28333,79.300003,27.54,0,96,7.61,IN
194,Linhai,28.85,121.116669,9.44,92,98,1.51,CN
195,Vreden,52.037922,6.828,-2.66,90,45,9.3,DE
196,Banovce nad Bebravou,48.721298,18.25754,-5.35,75,53,4.6,SK
197,Kirishi,59.447121,32.020489,-18.44,0,70,1.31,RU
198,Ravenna,44.4175,12.20111,-1.78,75,94,5.1,IT
199,Ciutadella,40.001122,3.84144,15.0,20,82,6.7,ES
200,Mudgal,16.01667,76.433327,19.89,0,36,2.66,IN
201,Nizhnyaya Salda,58.07756,60.7202,-10.57,76,71,3.41,RU
202,Dumka,24.26667,87.25,19.86,0,61,1.91,IN
203,Belleville,38.52005,-89.983994,8.13,90,93,6.7,US
204,Brandon,49.84692,-99.953056,-12.0,20,85,4.1,CA
205,Taishan,22.25135,112.7799,18.71,92,100,1.11,CN
206,Lesozavodsk,45.479439,133.424438,-9.02,88,83,8.81,RU
207,Manapla,10.95803,123.123001,23.69,0,84,2.51,PH
208,Betioky,-23.716669,44.383331,22.86,12,95,2.66,MG
209,Atibaia,-23.11694,-46.550282,29.76,75,58,1.5,BR
210,Arsikere,13.31389,76.256111,14.99,0,62,1.91,IN
211,North Bay,46.316799,-79.466331,-2.0,40,74,4.6,CA
212,Bolhrad,45.682621,28.61487,-10.0,0,78,2.1,UA
213,Itigi,-5.7,34.48333,18.14,88,81,2.46,TZ
214,Manismata,-2.46667,111.033333,22.09,68,97,0.96,ID
215,Oleiros,43.333328,-8.31667,4.89,90,93,7.7,ES
216,Riberalta,-10.98333,-66.099998,31.0,75,70,3.1,BO
217,Redlands,34.055569,-117.182541,7.67,20,61,1.26,US
218,Dara,15.34844,-15.47993,34.89,0,20,4.56,SN
219,Erd,47.39489,18.913601,-6.0,75,79,5.1,HU
220,Jakarta,-6.21462,106.845131,25.0,75,94,1.5,ID
221,Ostrow Mazowiecka,52.802448,21.895069,-12.37,44,76,2.81,PL
222,Moose Jaw,50.400051,-105.534447,-13.93,20,85,1.96,CA
223,Zhangjiakou,40.810001,114.87944,-5.37,0,52,2.81,CN
224,Cheshunt,51.707909,-0.03739,-1.67,90,91,11.3,GB
225,Pilibhit,28.633329,79.800003,18.34,88,70,2.86,IN
226,Kokshetau,53.2775,69.388336,-17.79,36,74,5.66,KZ
227,Badnawar,23.01667,75.216667,19.49,0,65,1.21,IN
228,Cesme,38.322781,26.306391,10.0,0,57,1.0,TR
229,Kamar Mushani,32.843891,71.366943,14.06,100,100,1.11,PK
230,Langzhong,31.550369,105.993813,7.36,0,91,1.16,CN
231,Mandapam,9.28333,79.116669,27.54,0,96,7.61,IN
232,Mianyang,31.459339,104.754242,12.86,48,80,1.66,CN
233,Khost,33.339512,69.92041,7.96,92,100,1.06,AF
234,Thoen,17.61289,99.216118,21.24,0,78,1.06,TH
235,San Jose,9.93333,-84.083328,25.03,0,33,4.6,CR
236,Herrenberg,48.59523,8.86648,-0.85,75,53,4.6,DE
237,Putyvl,51.337448,33.870659,-4.57,88,85,8.06,UA
238,Haubourdin,50.608261,2.99143,1.0,90,37,8.7,FR
239,Demerval Lobao,-5.35833,-42.676392,26.94,56,93,2.11,BR
240,Armyansk,46.109192,33.692059,-7.04,24,100,5.61,UA
241,Al Mukalla,14.54248,49.124241,22.59,20,100,3.21,SO
242,Vyatskiye Polyany,56.226021,51.065571,-15.64,24,64,3.11,RU
243,Abeokuta,7.15,3.35,31.14,64,49,3.31,NG
244,Yonago,35.433331,133.333328,7.0,75,39,5.1,JP
245,Toride,35.900002,140.083328,8.99,0,34,4.1,JP
246,El Attaf,36.22393,1.67187,22.0,40,49,9.3,DZ
247,Aquidauana,-20.471109,-55.78722,26.54,36,100,2.06,BR
248,Stamford,41.053429,-73.538727,13.85,1,54,1.5,US
249,Ghijduwon,40.099998,64.683327,10.0,40,81,2.1,UZ
250,Ocosingo,17.066669,-92.25,25.39,0,40,0.51,MX
251,Kaolack,14.1825,-16.25333,37.21,0,19,4.36,SN
252,Sabang,5.89333,95.321388,28.79,8,100,3.96,ID
253,Aranda de Duero,41.67041,-3.6892,6.36,92,97,7.81,ES
254,Mikhaylovsk,45.12833,42.025558,-1.0,90,100,2.0,RU
255,Bamako,12.65,-8.0,38.0,40,21,3.6,ML
256,Kalanwali,29.85,74.949997,18.79,0,73,1.36,IN
257,Ujar,40.51902,47.654228,5.59,88,94,1.56,AZ
258,Sangmelima,2.93333,11.98333,21.54,36,93,1.06,CM
259,Kankan,10.38542,-9.30568,30.71,68,52,1.56,GN
260,Vernon,50.258091,-119.269051,2.0,90,80,3.6,CA
261,Tunis,36.81897,10.16579,22.72,20,29,6.7,TN
262,Simav,39.0882,28.977671,-2.32,12,91,0.96,TR
263,Hermosillo,29.066669,-110.966667,16.0,5,29,2.31,MX
264,Settat,33.000702,-7.62035,18.22,75,88,14.9,MA
265,Sambava,-14.26667,50.166672,28.14,8,100,7.36,MG
266,Yenakiyeve,48.233311,38.211369,-5.52,88,88,3.31,UA
267,Zabid,14.1951,43.315182,26.34,88,75,4.86,YE
268,Zuhres,48.011398,38.264439,-5.52,88,88,3.31,UA
269,Bermeo,43.420879,-2.72152,13.8,20,59,9.8,ES
270,Anicuns,-16.461109,-49.96167,33.04,8,45,2.91,BR
271,Gobindpur,22.633329,86.066673,18.54,32,68,1.21,IN
272,Tagum,7.44778,125.807777,26.0,75,88,1.0,PH
273,Augustow,53.843208,22.97979,-13.47,92,75,3.86,PL
274,Kyle,29.99835,-97.871529,20.01,20,46,6.7,US
275,Nanzhou,29.35955,112.402428,10.11,92,100,7.61,CN
276,Suzhou,39.743179,98.517357,-6.62,20,60,1.86,CN
277,Banjar,-7.1955,107.431297,19.36,88,98,0.51,ID
278,Gohad,26.426109,78.444717,21.99,56,57,1.61,IN
279,Tianchang,37.998058,114.015556,-1.0,0,50,2.0,CN
280,Baswa,27.15,76.583328,20.84,76,56,0.66,IN
281,Kyaukse,21.6,96.133331,19.36,20,71,1.86,MM
282,Hengyang,26.88806,112.614998,13.71,92,100,4.91,CN
283,Tono,39.316669,141.533325,-1.07,64,61,6.91,JP
284,Kahama,-3.83333,32.599998,19.39,88,83,1.86,TZ
285,Wilmington,34.225731,-77.94471,19.9,90,83,5.1,US
286,Gimcheon,36.121761,128.119812,0.0,0,72,4.1,KR
287,Do Gonbadan,30.358601,50.7981,15.0,0,67,0.76,IR
288,Ramanathapuram,9.38333,78.833328,24.84,0,78,3.96,IN
289,Kyle,29.99835,-97.871529,20.01,20,46,6.7,US
290,Lyepyel,54.881432,28.69323,-9.54,80,82,6.11,BY
291,Randers,56.466671,10.05,-4.52,76,73,7.2,DK
292,Belaya Glina,46.07,40.860001,-0.67,92,90,2.66,RU
293,Prado,-17.34111,-39.220829,27.44,0,94,7.96,BR
294,Kitakami,39.283329,141.116669,-0.22,36,59,8.61,JP
295,Baherden,38.436241,57.43158,9.24,76,95,2.31,TM
296,My Tho,10.35,106.349998,27.0,40,88,2.6,VN
297,Yinchuan,38.46806,106.273064,-0.17,8,61,3.41,CN
298,Mosbach,49.353889,9.14278,-1.32,75,29,5.7,DE
299,Tiverton,50.900002,-3.48333,-3.63,90,100,13.9,GB
300,Korla,41.75972,86.146942,-3.79,12,74,1.16,CN
301,Trelew,-43.248951,-65.305054,26.99,0,24,4.56,AR
302,Harsin,34.272099,47.586102,9.0,20,45,6.2,IR
303,Ghazni,33.553558,68.426888,0.94,92,100,1.31,AF
304,Segovia,7.07993,-74.698898,32.36,8,41,0.96,CO
305,Narnaund,29.216669,76.150002,18.94,0,63,1.16,IN
306,Ain el Melh,34.841461,4.16383,19.0,75,55,4.1,DZ
307,Wolfsburg,52.433331,10.8,-5.36,0,45,6.7,DE
308,Kavadarci,41.43306,22.01194,-2.0,90,63,0.5,MK
309,Zomin,39.96056,68.395828,8.29,92,100,2.06,UZ
310,Westerville,40.126171,-82.92907,10.89,90,100,4.6,US
311,Tehran,35.694389,51.421509,11.92,40,32,3.1,IR
312,Bloemhof,-27.64686,25.60697,24.54,12,53,3.31,ZA
313,Funchal,32.633331,-16.9,19.0,40,68,9.3,PT
314,Itaberai,-16.020281,-49.81028,33.04,8,45,2.91,BR
315,Tychy,50.137169,18.96641,-10.0,0,61,3.6,PL
316,Helmond,51.48167,5.66111,-0.21,90,33,9.8,NL
317,Amarillo,35.222,-101.831299,4.34,1,40,5.7,US
318,Sarandi,-23.443609,-51.87389,30.0,75,55,2.1,BR
319,Bada Barabil,22.116671,85.400002,17.96,0,71,1.06,IN
320,Koulikoro,12.86273,-7.55985,38.0,40,21,3.6,ML
321,Dover,51.133331,1.3,1.0,75,59,13.4,GB
322,Zungeru,9.81278,6.15583,33.19,0,45,1.31,NG
323,Zhoucheng,35.91222,116.311668,0.44,12,68,4.81,CN
324,Pribram,49.68988,14.01043,-4.93,0,53,5.1,CZ
325,Nidda,50.416672,9.0,1.0,0,29,6.7,DE
326,Mabai,23.012791,104.450813,12.21,0,89,0.76,CN
327,Para de Minas,-19.860279,-44.60833,29.49,40,48,1.0,BR
328,Gangawati,15.43333,76.533333,20.59,0,35,3.66,IN
329,Kon Tum,14.35,108.0,19.74,76,99,1.06,VN
330,Dadukou,26.547899,101.705391,14.24,0,42,2.11,CN
331,Oak Ridge,36.010361,-84.269638,12.64,90,100,1.5,US
332,Macapa,0.03889,-51.066391,34.0,40,46,2.6,BR
333,Alot,23.76667,75.550003,20.96,0,49,3.56,IN
334,Taichung,24.1469,120.683899,19.0,75,93,1.86,TW
335,Dongcun,36.776669,121.159721,-0.54,0,100,4.16,CN
336,Mayiladuthurai,11.1,79.666672,24.69,0,91,3.41,IN
337,Bajil,15.05835,43.285061,24.34,0,78,2.76,YE
338,Isernhagen Farster Bauerschaft,52.466671,9.83333,-5.5,0,57,8.7,DE
339,Kasulu,-4.57667,30.102501,18.61,92,91,1.01,TZ
340,Sablayan,12.8346,120.768997,27.79,0,99,2.66,PH
341,Sumy,50.9216,34.800289,-4.89,80,87,8.06,UA
342,Nagpur,21.15,79.099998,26.0,0,36,1.41,IN
343,Vanderbijlpark,-26.71171,27.83795,27.0,80,36,1.31,ZA
344,Un,23.883329,71.76667,22.96,0,45,1.16,IN
345,Al Metlaoui,34.320808,8.40158,27.05,0,24,8.2,TN
346,Baykalsk,51.505829,104.146942,-17.69,44,69,1.31,RU
347,Raigarh,21.9,83.400002,20.99,0,56,1.76,IN
348,Kaufbeuren,47.883331,10.61667,-5.71,75,67,5.1,DE
349,Kolo,52.200241,18.638651,-11.72,20,65,3.01,PL
350,Maintal,50.150002,8.83333,1.0,0,29,6.7,DE
351,Coin,36.65947,-4.75639,20.0,40,45,3.6,ES
352,Tampico,22.216669,-97.849998,25.0,40,88,2.76,MX
353,Hanzhong,33.072781,107.030281,3.79,12,91,1.06,CN
354,St. Thomas,42.773609,-81.180382,2.0,90,80,8.2,CA
355,Latehar,23.75,84.5,17.61,0,71,1.21,IN
356,Randers,56.466671,10.05,-4.52,76,73,7.2,DK
357,Amalapuram,16.58333,82.01667,23.89,0,84,2.81,IN
358,Mueang Nonthaburi,13.86075,100.514771,27.47,20,83,3.6,TH
359,Mianyang,31.459339,104.754242,12.86,48,80,1.66,CN
360,Khanu Woralaksaburi,16.061701,99.86058,23.19,0,84,1.21,TH
361,Kolpashevo,58.313061,82.90889,-28.44,0,28,1.31,RU
362,Golbasi,37.783611,37.636669,9.0,75,93,3.6,TR
363,Yemva,62.589989,50.85939,-9.77,68,73,4.36,RU
364,Rajmahal,25.049999,87.833328,17.46,0,77,0.76,IN
365,Bar,49.077171,27.68256,-14.17,36,78,5.01,UA
366,Aalter,51.090172,3.44693,1.0,75,34,9.3,BE
367,Gaza,31.5,34.466671,18.0,0,55,2.1,IL
368,Taybad,34.740002,60.7756,7.14,76,100,1.31,IR
369,Rasht,37.280769,49.583191,9.0,90,100,2.1,IR
370,Heerlen,50.883652,5.98154,0.29,20,58,9.3,NL
371,Wuyang,31.9925,116.247223,5.24,92,100,6.01,CN
372,Kottagudem,17.549999,80.633331,20.34,0,73,0.46,IN
373,Vinh Long,10.25,105.966667,25.34,8,92,2.46,VN
374,Muravlenko,63.789768,74.52301,-17.69,56,63,4.81,RU
375,Port Harcourt,4.77742,7.0134,30.0,40,62,1.5,NG
376,Keelung,25.12825,121.741898,22.0,75,78,5.1,TW
377,Shakhunya,57.675789,46.611359,-17.37,0,73,1.76,RU
378,Fortaleza,-3.71722,-38.54306,26.0,75,88,4.1,BR
379,Dhanbad,23.799999,86.449997,18.79,0,67,1.46,IN
380,Larnaca,34.916672,33.629169,15.46,20,77,6.2,CY
381,Greiz,50.650002,12.2,-5.51,0,45,4.1,DE
382,Sassuolo,44.550861,10.7847,-2.68,90,92,2.1,IT
383,Coyah,9.70556,-13.37694,31.0,20,62,5.1,GN
384,Yamasaki,35.0,134.550003,4.04,12,69,5.16,JP
385,Uryupinsk,50.804699,42.013802,-11.32,88,83,6.01,RU
386,Bayeux,49.277321,-0.7039,-0.25,90,92,6.7,FR
387,Perpignan,42.697639,2.89541,11.0,90,100,10.3,FR
388,Rubtsovsk,51.5,81.25,-16.94,44,69,4.76,RU
389,Hinche,19.15,-72.01667,29.44,0,43,1.56,HT
390,Longmont,40.16721,-105.101929,-0.01,1,51,2.06,US
391,Hola Prystan,46.520557,32.525833,-9.44,8,99,5.91,UA
392,Astara,38.4291,48.872002,9.0,90,93,1.0,IR
393,Risod,19.966669,76.783333,20.59,8,53,0.96,IN
394,Quang Ngai,15.11667,108.800003,20.96,56,99,0.96,VN
395,Buynaksk,42.819,47.119202,5.0,90,93,4.0,RU
396,Padre Bernardo,-15.35,-48.5,32.14,0,42,3.51,BR
397,Port Alberni,49.241329,-124.802803,1.47,75,99,1.06,CA
398,Cervia,44.262039,12.34812,-1.36,75,100,5.1,IT
399,Bezhetsk,57.785061,36.69651,-17.07,12,71,4.46,RU
400,Jaypur,18.85,82.583328,15.69,0,55,1.51,IN
401,Balanga,14.67611,120.53611,27.37,20,78,2.6,PH
402,Jamkhandi,16.51667,75.300003,18.96,0,44,2.61,IN
403,Eindhoven,51.44083,5.47778,-0.38,90,33,9.8,NL
404,Nevinnomyssk,44.626667,41.945278,-1.0,90,100,2.0,RU
405,Tecate,32.566669,-116.633331,9.5,1,81,4.1,MX
406,Port Arthur,29.89883,-93.92878,18.61,90,100,5.7,US
407,Minot,48.23251,-101.296272,-4.49,1,63,2.1,US
408,Cabrobo,-8.51417,-39.310001,29.79,48,59,2.01,BR
409,Reims,49.25,4.03333,1.0,0,50,8.2,FR
410,Idil,37.341141,41.8895,7.81,64,92,2.01,TR
411,Chandur,19.73333,79.183327,20.24,0,61,1.56,IN
412,Orta Nova,41.329929,15.71066,9.0,90,93,5.1,IT
413,Nagercoil,8.16667,77.433327,30.0,40,66,2.1,IN
414,Laranjal Paulista,-23.049721,-47.83667,34.56,12,41,2.56,BR
415,Lencois Paulista,-22.59861,-48.800282,25.0,75,94,7.7,BR
416,Le Chatelard,46.445271,6.89908,-0.43,40,69,2.1,CH
417,Udaipur,23.533331,91.48333,20.04,0,84,1.21,IN
418,Porto Alegre,-30.03306,-51.23,30.07,0,62,3.1,BR
419,Gorno-Altaysk,51.956108,85.955002,-15.42,44,77,8.16,RU
420,Shimanovsk,52.0,127.699997,-18.57,20,56,2.41,RU
421,Saint-Raphael,43.423321,6.7735,5.78,90,93,1.0,FR
422,Saskatoon,52.116791,-106.634521,-13.0,40,84,1.5,CA
423,Kamachumu,-1.61861,31.620001,22.59,56,92,1.96,TZ
424,Otradnyy,53.375961,51.3452,-24.32,0,39,1.31,RU
425,Gjovik,60.795738,10.69155,-18.19,0,66,0.96,NO
426,Pont-a-Mousson,48.90786,6.0589,-1.0,90,46,10.8,FR
427,Raalte,52.38583,6.275,-3.0,90,45,8.7,NL
428,Mlandizi,-6.7,38.73333,24.0,75,94,1.41,TZ
429,Soroti,1.71464,33.61113,19.89,56,94,0.66,UG
430,Fatehabad,29.51667,75.449997,19.31,0,65,1.56,IN
431,Osan,37.152222,127.070557,-3.66,20,62,2.6,KR
432,Areia Branca,-4.95611,-37.13694,28.61,88,91,6.66,BR
433,Losal,27.4,74.916672,19.84,32,53,2.36,IN
434,Takhatgarh,25.33333,73.0,21.81,0,39,2.96,IN
435,Kalininsk,51.5,44.4758,-17.52,20,74,5.71,RU
436,La Fria,8.22027,-72.243896,27.0,40,65,3.6,VE
437,North Shore,-31.40237,152.901855,19.0,92,82,2.6,AU
438,Youhao,47.866669,128.833328,-14.89,0,57,2.76,CN
439,Sapanca,40.69141,30.26738,1.0,20,86,0.96,TR
440,Turkmenbasy,40.02216,52.955181,8.0,40,81,3.1,TM
441,Dachau,48.259998,11.43402,-5.25,75,62,4.6,DE
442,Sailu,19.466669,76.466667,20.11,0,59,1.01,IN
443,Gaogou,34.017502,119.188606,-0.12,0,74,2.81,CN
444,Culiacan,24.79944,-107.389717,18.0,40,59,1.86,MX
445,Polonne,50.124241,27.51087,-13.37,88,81,5.26,UA
446,Paulo Afonso,-9.40611,-38.214722,29.84,36,70,4.66,BR
447,Montichiari,45.41518,10.39068,-2.0,40,100,0.91,IT
448,Kanakapura,12.55,77.416672,23.0,0,33,4.1,IN
449,Gera,50.880291,12.08187,-5.38,0,45,4.1,DE
450,Yuzhnouralsk,54.441799,61.253601,-15.39,32,78,4.31,RU
451,Sundarnagar,31.533331,76.883331,8.71,88,80,0.86,IN
452,Paranapanema,-23.388611,-48.722778,32.84,0,49,1.96,BR
453,Amsterdam,52.374031,4.88969,-1.65,0,42,9.3,NL
454,Bihar Sharif,25.183331,85.51667,23.0,20,73,2.31,IN
455,Jipijapa,-1.33333,-80.583328,28.0,75,78,2.6,EC
456,Xinzhou,38.409168,112.73333,-4.37,0,59,1.96,CN
457,Jinja,0.43902,33.203171,17.54,92,100,2.06,UG
458,Inza,53.853333,46.358612,-22.82,0,67,1.16,RU
459,Entroncamento,39.466671,-8.46667,13.0,75,71,8.2,PT
460,Adana,37.001671,35.328892,13.99,40,87,2.1,TR
461,Propicia,0.93333,-79.683327,24.99,80,100,1.61,EC
462,Dar es Salaam,-6.82349,39.269508,25.79,75,94,1.41,TZ
463,Tambov,52.73167,41.433891,-13.92,68,78,6.26,RU
464,Shamsabad,27.01667,78.133331,21.94,56,51,2.01,IN
465,Lakewood,41.481991,-81.798187,5.9,90,93,5.1,US
466,Cataguases,-21.38917,-42.696671,31.36,48,65,1.96,BR
467,Aachen,50.776642,6.08342,0.17,20,58,9.3,DE
468,Almenara,-16.183611,-40.694439,33.99,0,34,2.06,BR
469,Jangipur,24.466669,88.066673,18.74,0,81,1.21,IN
470,Coronel Suarez,-37.45467,-61.93343,32.56,8,37,3.66,AR
471,Fort Collins,40.585258,-105.084419,0.98,1,51,2.51,US
472,Sri Madhopur,27.466669,75.599998,15.79,36,80,1.51,IN
473,Marica,-22.919439,-42.818611,30.97,40,70,5.7,BR
474,Marietta,33.952599,-84.549927,19.21,90,87,5.7,US
475,Kosan,38.855831,127.41806,-13.72,0,44,1.41,KR
476,Huntingdon,52.33049,-0.18651,-2.01,75,68,5.1,GB
477,Gevgelija,41.139172,22.502501,-1.32,92,86,0.96,MK
478,Limoges,45.831532,1.2578,11.0,0,62,7.2,FR
479,Takhatpur,22.15,81.866669,22.29,0,43,2.61,IN
480,Veracruz,19.200001,-96.133331,26.0,5,74,3.1,MX
481,Pyu,18.48333,96.433327,19.14,68,63,1.51,MM
482,Rajpur,22.299999,74.349998,21.04,8,69,1.16,IN
483,Canguaretama,-6.38,-35.128891,27.0,90,83,3.6,BR
484,Surabaya,-7.24917,112.750832,24.34,64,100,1.06,ID
485,Bialystok,53.133331,23.15,-13.37,80,74,2.96,PL
486,Pocito,-31.683331,-68.583328,29.09,44,37,1.41,AR
487,Bykhaw,53.519348,30.246929,-7.69,80,85,6.61,BY
488,Lincoln,38.89156,-121.293007,7.1,90,87,10.8,US
489,Ipiales,0.83018,-77.64959,16.0,75,59,1.0,CO
490,Kampong Dungun,3.21667,101.316673,25.98,75,83,1.0,MY
491,Nowa Sol,51.803329,15.71702,-8.87,36,57,4.71,PL
492,Miami,25.774269,-80.193657,27.22,20,57,5.1,US
493,Kailua,21.40222,-157.739441,22.06,90,73,5.1,US
494,Tuttlingen,47.98333,8.81667,-4.0,0,68,5.1,DE
495,Athens,39.329239,-82.101257,12.25,90,100,2.1,US
496,Ruteng,-8.6136,120.472099,20.36,12,91,1.41,ID
497,Goole,53.716671,-0.86667,-0.58,90,89,8.2,GB
498,Tabuk,17.4189,121.444298,19.71,68,98,0.71,PH
499,Balangir,20.716669,83.48333,19.94,0,67,1.21,IN
